{"backstreets": [
    {
        "coordinates": [55.777029, 37.445168],
        "name": "Живописный мост",
        "link": "/moscow-backstreets/zhivopisnyj-bridge.html",
        "description": "Этот мост стал визитной карточкой города"
    },
    {
        "coordinates": [55.691631, 37.786242],
        "name": "Кузьминки",
        "link": "/moscow-backstreets/kuzminki.html",
        "description": "Попасть в парк можно пешком от станции метро Волжская (выход прямо в парк)."
    },
    {
        "coordinates": [55.731521, 37.654318],
        "name": "Новоспасский пруд и монастырь",
        "link": "/moscow-backstreets/novospassky-pond.html",
        "description": "Нет никакого пафоса и&nbsp;толп людей. Всё для отдыха."
    },
    {
        "coordinates": [55.780071, 37.426231],
        "name": "Серебряный бор",
        "link": "/moscow-backstreets/serebryany-bor.html",
        "description": "На&nbsp;этом острове, на&nbsp;западе Москвы, каждый сможет найти себе занятие для отдыха."
    },
    {
        "coordinates": [55.83643, 37.437813],
        "name": "Деривационный канал",
        "link": "/moscow-backstreets/diversion-canal.html",
        "description": "А рядышком расположился стенд для испытания реактивных двигателей Миг-29."
    },
    {
        "coordinates": [55.724266, 37.593659],
        "name": "Набережная Нескучного Сада",
        "link": "/moscow-backstreets/embankment-of-neskuchny-garden.html",
        "description": "Эта набережная&nbsp;&mdash; пожалуй лучшее место в&nbsp;Москве."
    },
    {
        "coordinates": [55.797341, 37.429851],
        "name": "Строгинская пойма",
        "link": "/moscow-backstreets/floodplain-of-strogino.html",
        "description": "Летом там проводят водные соревнования, плавают на лодках и занимаются виндсерфингом."
    },
    {
        "coordinates": [55.792453, 37.533778],
        "name": "Ходынское поле",
        "link": "/moscow-backstreets/khodynka-field.html",
        "description": "На Ходынском поле когда-то умерло очень много народа."
    },
    {
        "coordinates": [55.66733, 37.478495],
        "name": "Синий Зуб",
        "link": "/moscow-backstreets/blue-tooth.html",
        "description": "Попасть на территорию можно между стоянкой и забором."
    },
    {
        "coordinates": [55.710337, 37.559254],
        "name": "Метромост на Воробьевых горах",
        "link": "/moscow-backstreets/metro-bridge.html",
        "description": "Место на крыше метро облюбовали трейсеры, неформалы и прочая молодежь."
    },
    {
        "coordinates": [55.769155, 37.706883],
        "name": "Введенское кладбище",
        "link": "/moscow-backstreets/vvedenskoye-cemetery.html"
    },
    {
        "coordinates": [55.714713, 37.467554],
        "name": "Долина реки Сетунь",
        "link": "/moscow-backstreets/river-valley-setun.html",
        "description": "Весной пойма Сетуни заливается водой, которая заполняет не только русло, но и старицу.",
        "note": "старая версия статьи"
    },
    {
        "coordinates": [55.788926, 37.694959],
        "name": "Заброшенные инфекционные корпуса",
        "link": "/moscow-backstreets/abandoned-infectious-buildings.html",
        "description": "Там есть 3 корпуса. Один практически не различим с землей."
    },
    {
        "coordinates": [55.793278, 37.552624],
        "name": "Петровский путевой дворец",
        "link": "/moscow-backstreets/petrovsky-palace.html",
        "description": "Дворец был отреставрирован, ему возвращён его прежний статус."
    },
    {
        "coordinates": [55.762318, 37.451007],
        "name": "Татаровское озеро",
        "link": "/moscow-backstreets/tatarovskaye-lake.html",
        "description": "К сожалению берег облагорожен только со стороны гольф-клуба и поселка."
    },
    {
        "coordinates": [55.69357, 37.673976],
        "name": "Нагатинская пойма",
        "link": "/moscow-backstreets/floodplain-of-nagatino.html",
        "description": "В глубине парка&nbsp;&mdash; дебри."
    }
],
"disabled": [{
        "coordinates": [55.681311, 37.503621],
        "name": "Парк имени 50-летия Октября",
        "link": "http://nim579.ru/blog/2009-06-04-22",
        "description": "Парк не отличается большими размерами.",
        "note": "старая версия статьи"
    }
]}
