{"backstreets": [
    {
        "coordinates": [55.777029, 37.445168],
        "name": "Живописный мост",
        "link": "/moscow-backstreets/zhivopisnyj-bridge.html",
        "desriptoin": "Этот мост стал визитной карточкой города",
        "note": "заготовка статьи"
    },
    {
        "coordinates": [55.691631, 37.786242],
        "name": "Кузьминки",
        "link": "http://nim579.ru/blog/2012-05-07-89",
        "desriptoin": "Попасть в парк можно пешком от станции метро Волжская (выход прямо в парк).",
        "note": "старая версия статьи"
    },
    {
        "coordinates": [55.731521, 37.654318],
        "name": "Новоспасский пруд и монастырь",
        "link": "http://nim579.ru/blog/2012-07-02-92",
        "desriptoin": "Нет никакого пафоса и&nbsp;толп людей. Всё для отдыха.",
        "note": "старая версия статьи"
    },
    {
        "coordinates": [55.69357, 37.673976],
        "name": "Нагатинская пойма",
        "link": "http://nim579.ru/blog/2012-05-06-88",
        "desriptoin": "В глубине парка&nbsp;&mdash; дебри.",
        "note": "старая версия статьи"
    },
    {
        "coordinates": [55.780071, 37.426231],
        "name": "Серебряный бор",
        "link": "/moscow-backstreets/serebryany-bor.html",
        "desriptoin": "На&nbsp;этом острове, на&nbsp;западе Москвы, каждый сможет найти себе занятие для отдыха.",
        "note": null
    },
    {
        "coordinates": [55.83643, 37.437813],
        "name": "Деривационный канал",
        "link": "http://nim579.ru/blog/2012-01-19-73",
        "desriptoin": "А рядышком расположился стенд для испытания реактивных двигателей Миг-29.",
        "note": "старая версия статьи"
    },
    {
        "coordinates": [55.724266, 37.593659],
        "name": "Набережная Нескучного сада",
        "link": "http://nim579.ru/blog/2009-11-28-38",
        "desriptoin": "Набережная сада&nbsp;&mdash; пожалуй лучшее место в&nbsp;Москве.",
        "note": "старая версия статьи"
    },
    {
        "coordinates": [55.797341, 37.429851],
        "name": "Строгинская пойма",
        "link": "http://nim579.ru/blog/2009-07-29-33",
        "desriptoin": "Летом там проводят водные соревнования, плавают на лодках и занимаются виндсерфингом.",
        "note": "старая версия статьи"
    },
    {
        "coordinates": [55.86258, 37.490209],
        "name": "Ховринская заброшенная больница",
        "link": "http://nim579.ru/blog/2009-06-09-31",
        "desriptoin": "В настоящее время ХЗБ представляет собой унылое зрелище.",
        "note": "старая версия статьи"
    },
    {
        "coordinates": [55.792453, 37.533778],
        "name": "Ходынское поле",
        "link": "http://nim579.ru/blog/2009-06-09-30",
        "desriptoin": "На Ходынском поле когда-то умерло очень много народа.",
        "note": "старая версия статьи"
    },
    {
        "coordinates": [55.66733, 37.478495],
        "name": "Синий Зуб",
        "link": "http://nim579.ru/blog/2009-06-05-27",
        "desriptoin": "Попасть на территорию можно между стоянкой и забором.",
        "note": "старая версия статьи"
    },
    {
        "coordinates": [55.710337, 37.559254],
        "name": "Метромост на Воробьевых горах",
        "link": "http://nim579.ru/blog/2009-06-05-26",
        "desriptoin": "Место на крыше метро облюбовали трейсеры, неформалы и прочая молодежь.",
        "note": "старая версия статьи"
    },
    {
        "coordinates": [55.769155, 37.706883],
        "name": "Введенское кладбище",
        "link": "http://nim579.ru/blog/2009-06-05-25",
        "desriptoin": "Очень хорошо бывать там осенью и зимой.",
        "note": "старая версия статьи"
    },
    {
        "coordinates": [55.714713, 37.467554],
        "name": "Долина реки Сетунь",
        "link": "http://nim579.ru/blog/2009-06-04-23",
        "desriptoin": "Весной пойма Сетуни заливается водой, которая заполняет не только русло, но и старицу.",
        "note": "старая версия статьи"
    },
    {
        "coordinates": [55.681311, 37.503621],
        "name": "Парк имени 50-летия Октября",
        "link": "http://nim579.ru/blog/2009-06-04-22",
        "desriptoin": "Парк не отличается большими размерами.",
        "note": "старая версия статьи"
    },
    {
        "coordinates": [55.788926, 37.694959],
        "name": "Заброшенные инфекционные корпуса",
        "link": "http://nim579.ru/blog/2009-06-04-21",
        "desriptoin": "Там есть 3 корпуса. Один практически не различим с землей.",
        "note": "старая версия статьи"
    },
    {
        "coordinates": [55.793278, 37.552624],
        "name": "Петровский путевой дворец",
        "link": "http://nim579.ru/blog/2009-06-04-20",
        "desriptoin": "Дворец был отреставрирован, ему возвращён его прежний статус.",
        "note": "старая версия статьи"
    },
    {
        "coordinates": [55.762318, 37.451007],
        "name": "Татаровское озеро",
        "link": "http://nim579.ru/blog/2009-06-04-18",
        "desriptoin": "К сожалению берег облагорожен только со стороны гольф-клуба и поселка.",
        "note": "старая версия статьи"
    }
]}